[
  {
    "name": "Mark's Place",
    "description" : "Where Mark lives in a 1+den condo",
    "lat": 43.648410, 
    "long": -79.376470,  
    "street": "88 Scott St",
    "city" : "Toronto",
    "postal": "M5E 1X6",
    "country": "Canada",
    "status": "busy",
    "distance": 0,
    "images" : [
      "https://via.placeholder.com/320",
      "https://via.placeholder.com/320",
      "https://via.placeholder.com/320"
    ]
  },
  {
    "name": "Corner Place",
    "description" : "Small plates & international cuisine are the focus at this laid-back bar & restaurant.",
    "lat": 43.649780, 
    "long": -79.371340,    
    "street": "11 Jarvis",
    "city" : "Toronto",
    "provice" : "ON",
    "postal": "M5E 1N3",
    "country": "Canada",    
    "status": "packed",
    "distance": 0,
    "images" : [
      "https://via.placeholder.com/320",
      "https://via.placeholder.com/320",
      "https://via.placeholder.com/320"
    ]
  },
  {
    "name": "Hot House",
    "description" : "A restaurant with hot food",
    "lat": 43.649290, 
    "long": -79.373820,
    "street": "35 Church",
    "city" : "Toronto",
    "provice" : "ON",
    "postal": "M5E 1T3",
    "country": "Canada",
    "status": "dead",
    "distance": 0,
    "images" : [
      "https://via.placeholder.com/320",
      "https://via.placeholder.com/320",
      "https://via.placeholder.com/320"
    ]
  },
  {
    "name": "C'est What",
    "description" : "Subterranean taproom offering comfort food plus dozens of craft beers, a whisky bar & board games.",
    "lat": 43.648410, 
    "long": -79.373390,
    "street": "67 Front St E",
    "city" : "Toronto",
    "provice" : "ON",
    "postal": "M5E 1B5",
    "country": "Canada",
    "status": "busy",
    "distance": 0,
    "images" : [
      "https://via.placeholder.com/320",
      "https://via.placeholder.com/320",
      "https://via.placeholder.com/320"
    ]
  },
  {
    "name": "Earl's",
    "description" : "Sleek, upscale chain serving gourmet burgers, global comfort food, cocktails, wines & beers.",
    "lat": 43.648410, 
    "long": -79.373390,
    "street": "150 King St W # 100",
    "city" : "Toronto",
    "provice" : "ON",
    "postal": "M5H 3T9",
    "country": "Canada",
    "status": "busy",
    "distance": 0,
    "images" : [
      "https://via.placeholder.com/320",
      "https://via.placeholder.com/320",
      "https://via.placeholder.com/320"
    ]
  },
  {
    "name": "Early Mercy",
    "description" : "Trendy cocktail bar with changing food & offbeat decor (e.g. a word wall & political portraits).",
    "lat": 43.645160, 
    "long": -79.398060,
    "street": "540 King St W",
    "city" : "Toronto",
    "provice" : "ON",
    "postal": "M5V 1M3",
    "country": "Canada",
    "status": "packed",
    "distance": 0,
    "images" : [
      "https://via.placeholder.com/320",
      "https://via.placeholder.com/320",
      "https://via.placeholder.com/320"
    ]
  },
  {
    "name": "Crocodile Rock",
    "description" : "Popular after-work spot for drinks, burgers & appetizers, with retro tunes & a large rooftop patio.",
    "lat": 43.648450, 
    "long": -79.388550,
    "street": "240 Adelaide St W",
    "city" : "Toronto",
    "provice" : "ON",
    "postal": "M5H 1W7",
    "country": "Canada",
    "status": "dead",
    "distance": 0,
    "images" : [
      "https://via.placeholder.com/320",
      "https://via.placeholder.com/320",
      "https://via.placeholder.com/320"
    ]
  }
]
